,City,Lat,Lng,Max Temp,Humidity,Cloudiness,Wind Speed,Country,Date
0,East London,-33.0153,27.9116,63.14,84,98,13.56,ZA,2022-07-20 01:37:03
1,Yellowknife,62.456,-114.3525,72.12,53,40,13.8,CA,2022-07-20 01:39:30
2,Rikitea,-23.1203,-134.9692,74.32,76,3,7.92,PF,2022-07-20 01:39:31
3,Mountain Home,43.133,-115.6912,96.28,9,0,5.75,US,2022-07-20 01:39:31
4,Collie,-33.3667,116.15,57.31,65,94,8.41,AU,2022-07-20 01:39:31
5,Cape Town,-33.9258,18.4232,58.37,79,20,7.0,ZA,2022-07-20 01:35:03
6,Labuan,5.2767,115.2417,86.36,79,20,3.44,MY,2022-07-20 01:39:32
7,Avarua,-21.2078,-159.775,77.05,61,40,6.91,CK,2022-07-20 01:39:28
8,Yar-Sale,66.8333,70.8333,61.65,61,97,5.7,RU,2022-07-20 01:39:32
9,Upernavik,72.7868,-56.1549,45.19,76,81,2.35,GL,2022-07-20 01:39:33
10,Vila Franca Do Campo,37.7167,-25.4333,74.19,88,94,5.48,PT,2022-07-20 01:39:33
11,Saskylakh,71.9167,114.0833,44.17,61,100,15.39,RU,2022-07-20 01:35:51
12,Reutte,47.4833,10.7167,67.66,67,100,6.8,AT,2022-07-20 01:39:33
13,Nyurba,63.2842,118.3319,55.18,72,100,9.15,RU,2022-07-20 01:39:34
14,Leningradskiy,69.3833,178.4167,34.57,97,100,21.79,RU,2022-07-20 01:37:05
15,Carnarvon,-24.8667,113.6333,70.34,42,82,12.26,AU,2022-07-20 01:39:34
16,Alofi,-19.0595,-169.9187,78.69,69,40,20.71,NU,2022-07-20 01:39:34
17,Bengkulu,-3.8004,102.2655,80.04,81,95,1.74,ID,2022-07-20 01:39:35
18,Barrow,71.2906,-156.7887,44.62,70,0,17.27,US,2022-07-20 01:39:35
19,Butaritari,3.0707,172.7902,82.63,76,97,15.08,KI,2022-07-20 01:35:47
20,Port Elizabeth,-33.918,25.5701,53.89,97,75,10.36,ZA,2022-07-20 01:39:36
21,Tasiilaq,65.6145,-37.6368,36.5,87,46,5.46,GL,2022-07-20 01:39:36
22,Touros,-5.1989,-35.4608,72.91,87,2,13.47,BR,2022-07-20 01:36:48
23,Hilo,19.7297,-155.09,85.28,70,40,10.36,US,2022-07-20 01:38:23
24,Dikson,73.5069,80.5464,47.16,71,100,12.15,RU,2022-07-20 01:39:37
25,Rawson,-43.3002,-65.1023,52.41,62,94,14.85,AR,2022-07-20 01:39:27
26,Ushuaia,-54.8,-68.3,38.86,81,75,4.61,AR,2022-07-20 01:37:06
27,Lorengau,-2.0226,147.2712,83.7,69,100,6.85,PG,2022-07-20 01:39:37
28,Mataura,-46.1927,168.8643,46.47,73,92,3.96,NZ,2022-07-20 01:39:37
29,Harper,4.375,-7.7169,73.81,72,93,7.58,LR,2022-07-20 01:37:42
30,Saqqez,36.2499,46.2735,69.82,30,0,3.51,IR,2022-07-20 01:39:38
31,Jamestown,42.097,-79.2353,76.64,76,0,5.75,US,2022-07-20 01:34:45
32,Gari,59.4307,62.3497,62.6,99,100,5.57,RU,2022-07-20 01:39:38
33,Hobart,-42.8794,147.3294,48.25,72,20,8.05,AU,2022-07-20 01:39:39
34,Talnakh,69.4865,88.3972,56.21,46,100,1.63,RU,2022-07-20 01:37:00
35,Vaini,-21.2,-175.2,77.16,83,20,12.66,TO,2022-07-20 01:37:46
36,Atuona,-9.8,-139.0333,77.68,72,36,11.83,PF,2022-07-20 01:39:39
37,Jablah,35.3614,35.9256,75.49,57,0,2.3,SY,2022-07-20 01:39:40
38,Kavaratti,10.5669,72.642,81.1,81,100,22.19,IN,2022-07-20 01:39:40
39,Busselton,-33.65,115.3333,59.77,72,96,11.88,AU,2022-07-20 01:39:40
40,Vysokogornyy,50.1167,139.15,61.79,85,100,3.02,RU,2022-07-20 01:39:41
41,Hermanus,-34.4187,19.2345,51.51,77,21,4.61,ZA,2022-07-20 01:39:41
42,Bealanana,-14.55,48.7333,54.39,83,84,10.22,MG,2022-07-20 01:39:41
43,Baykit,61.67,96.37,61.77,77,84,3.71,RU,2022-07-20 01:39:42
44,Mayo,38.8876,-76.5119,82.81,83,0,1.01,US,2022-07-20 01:39:42
45,Iqaluit,63.7506,-68.5145,40.73,93,100,3.44,CA,2022-07-20 01:39:42
46,Tuatapere,-46.1333,167.6833,44.85,80,94,3.27,NZ,2022-07-20 01:39:43
47,Portland,45.5234,-122.6762,90.79,40,0,10.36,US,2022-07-20 01:38:26
48,Catamarca,-28.4696,-65.7852,53.08,54,6,8.43,AR,2022-07-20 01:39:43
49,Chuy,-33.6971,-53.4616,44.98,90,0,5.53,UY,2022-07-20 01:39:43
50,San Jeronimo,-11.9472,-75.2829,45.46,77,15,4.5,PE,2022-07-20 01:39:44
51,Portree,57.4129,-6.1942,54.52,94,98,5.61,GB,2022-07-20 01:39:44
52,Ust-Kuyga,70.0167,135.6,47.52,66,99,16.31,RU,2022-07-20 01:39:44
53,Caravelas,-17.7125,-39.2481,70.3,88,0,4.47,BR,2022-07-20 01:38:49
54,Concordia,-31.393,-58.0209,50.79,91,0,1.99,AR,2022-07-20 01:39:45
55,Ihosy,-22.4,46.1167,53.8,94,51,6.64,MG,2022-07-20 01:39:45
56,Bambous Virieux,-20.3428,57.7575,70.05,68,40,18.41,MU,2022-07-20 01:39:46
57,Mar Del Plata,-38.0023,-57.5575,48.09,74,7,15.99,AR,2022-07-20 01:39:46
58,Vardo,70.3705,31.1107,53.58,100,100,6.91,NO,2022-07-20 01:39:46
59,Abbeville,50.1,1.8333,68.49,90,99,9.01,FR,2022-07-20 01:39:47
60,Tuktoyaktuk,69.4541,-133.0374,50.0,93,100,5.75,CA,2022-07-20 01:39:47
61,Subotica,46.1,19.6667,66.38,37,0,0.65,RS,2022-07-20 01:39:47
62,Naze,28.3667,129.4833,86.92,81,100,15.03,JP,2022-07-20 01:39:48
63,Komsomolskiy,40.4272,71.7189,77.72,27,0,9.22,UZ,2022-07-20 01:39:48
64,General Cepeda,25.3833,-101.45,72.75,55,99,3.44,MX,2022-07-20 01:39:48
65,Orcopampa,-15.2661,-72.3417,46.81,44,22,1.54,PE,2022-07-20 01:39:49
66,Palmer,42.1584,-72.3287,80.15,75,40,3.44,US,2022-07-20 01:39:49
67,Kapaa,22.0752,-159.319,84.18,80,100,17.27,US,2022-07-20 01:37:00
68,Polovinnoye,54.7914,65.9864,66.13,89,92,6.69,RU,2022-07-20 01:39:49
69,Shangzhi,45.2167,127.9667,78.66,68,29,0.51,CN,2022-07-20 01:39:50
70,Porto Santo,33.072,-16.3415,70.18,78,40,9.22,PT,2022-07-20 01:39:50
71,Cidreira,-30.1811,-50.2056,57.65,90,8,5.46,BR,2022-07-20 01:39:50
72,Sao Filipe,14.8961,-24.4956,77.07,84,80,8.55,CV,2022-07-20 01:39:51
73,Port-Gentil,-0.7193,8.7815,73.65,83,19,8.34,GA,2022-07-20 01:39:51
74,Okha,53.5739,142.9478,56.55,90,97,12.26,RU,2022-07-20 01:39:51
75,Raudeberg,61.9875,5.1352,65.07,87,96,26.57,NO,2022-07-20 01:39:52
76,Merauke,-8.4667,140.3333,78.64,83,100,14.94,ID,2022-07-20 01:38:17
77,Chumikan,54.7183,135.315,52.34,99,100,8.66,RU,2022-07-20 01:39:52
78,Port Alfred,-33.5906,26.891,57.18,97,100,3.0,ZA,2022-07-20 01:39:52
79,Port Lincoln,-34.7333,135.8667,52.32,56,88,14.63,AU,2022-07-20 01:39:53
80,Vao,-22.6667,167.4833,73.94,90,21,13.02,NC,2022-07-20 01:39:53
81,Vestmannaeyjar,63.4427,-20.2734,51.73,87,88,13.11,IS,2022-07-20 01:39:53
82,Mahebourg,-20.4081,57.7,69.3,68,78,24.2,MU,2022-07-20 01:39:54
83,Sao Raimundo Nonato,-9.0153,-42.6994,71.56,50,5,4.21,BR,2022-07-20 01:39:54
84,Sretensk,52.2453,117.7093,85.5,33,6,3.27,RU,2022-07-20 01:39:54
85,Srednekolymsk,67.45,153.6833,53.89,43,92,6.51,RU,2022-07-20 01:39:55
86,Gabu,12.2833,-14.2167,73.33,96,100,5.86,GW,2022-07-20 01:39:55
87,Marystown,47.1666,-55.1483,64.85,100,100,17.58,CA,2022-07-20 01:39:55
88,Mananjary,-21.2167,48.3333,66.69,79,61,5.03,MG,2022-07-20 01:39:56
89,Kodiak,57.79,-152.4072,56.71,67,100,6.91,US,2022-07-20 01:35:50
90,Mount Isa,-20.7333,139.5,74.97,29,0,10.36,AU,2022-07-20 01:35:10
91,Kaitangata,-46.2817,169.8464,44.8,78,100,5.97,NZ,2022-07-20 01:39:56
92,Bluff,-46.6,168.3333,46.8,69,100,9.17,NZ,2022-07-20 01:39:57
93,Tiksi,71.6872,128.8694,34.92,96,100,14.41,RU,2022-07-20 01:39:57
94,Aklavik,68.2191,-135.0107,66.69,52,100,10.25,CA,2022-07-20 01:39:57
95,Nizhneangarsk,55.7833,109.55,54.88,82,55,3.4,RU,2022-07-20 01:39:58
96,Nishihara,26.1842,127.7558,87.15,74,20,11.45,JP,2022-07-20 01:39:58
97,Poso,-1.3959,120.7524,84.51,64,62,1.68,ID,2022-07-20 01:39:58
98,Kasongo-Lunda,-6.4667,16.8167,67.98,80,50,2.1,CD,2022-07-20 01:39:59
99,Mackay,-21.15,149.2,72.68,78,100,13.85,AU,2022-07-20 01:39:59
100,Souillac,-20.5167,57.5167,68.13,72,44,22.03,MU,2022-07-20 01:39:59
101,Katsuura,35.1333,140.3,87.82,77,86,5.46,JP,2022-07-20 01:38:09
102,Gorontalo,0.5412,123.0595,85.57,69,100,3.09,ID,2022-07-20 01:40:00
103,Jiayuguan,39.8167,98.3,75.99,23,82,8.23,CN,2022-07-20 01:40:00
104,Saint-Joseph,-21.3667,55.6167,69.21,72,24,19.24,RE,2022-07-20 01:40:01
105,Hithadhoo,-0.6,73.0833,81.77,72,99,6.89,MV,2022-07-20 01:37:35
106,Besikduzu,41.052,39.2284,71.49,78,67,8.03,TR,2022-07-20 01:40:01
107,Ducheng,23.2373,111.5317,89.78,63,55,5.53,CN,2022-07-20 01:40:01
108,Punta Arenas,-53.15,-70.9167,35.71,87,75,43.73,CL,2022-07-20 01:37:53
109,Torbay,47.6666,-52.7314,63.28,95,100,19.57,CA,2022-07-20 01:35:48
110,Saint-Philippe,-21.3585,55.7679,70.21,74,48,18.66,RE,2022-07-20 01:40:02
111,Pangoa,-12.1167,-73.0,68.22,97,79,2.06,PE,2022-07-20 01:40:02
112,Qaanaaq,77.484,-69.3632,40.93,75,95,2.04,GL,2022-07-20 01:40:03
113,Chingirlau,51.095,54.0814,63.43,71,50,6.49,KZ,2022-07-20 01:40:03
114,Bredasdorp,-34.5322,20.0403,46.04,87,13,3.38,ZA,2022-07-20 01:38:48
115,Planaltina,-15.4528,-47.6142,61.11,44,9,5.08,BR,2022-07-20 01:40:04
116,Constitucion,-35.3333,-72.4167,47.41,62,0,7.31,CL,2022-07-20 01:37:14
117,Saint-Augustin,51.226,-58.6502,54.28,93,100,21.0,CA,2022-07-20 01:40:04
118,Coahuayana,18.7333,-103.6833,80.17,87,56,2.66,MX,2022-07-20 01:40:05
119,Ca Mau,9.1769,105.15,82.51,81,100,8.46,VN,2022-07-20 01:40:05
120,Hun,29.1268,15.9477,75.07,54,0,5.01,LY,2022-07-20 01:40:05
121,Alice Springs,-23.7,133.8833,64.44,30,2,10.45,AU,2022-07-20 01:35:50
122,Laguna,38.421,-121.4238,102.31,16,0,13.8,US,2022-07-20 01:40:06
123,Jalu,29.0331,21.5482,75.18,50,2,10.29,LY,2022-07-20 01:39:28
124,Biharamulo,-2.6319,31.3089,60.73,59,37,2.95,TZ,2022-07-20 01:40:06
125,Lebu,-37.6167,-73.65,47.84,86,25,3.27,CL,2022-07-20 01:40:07
126,Tereze,43.9361,42.4434,58.32,98,87,1.41,RU,2022-07-20 01:40:07
127,Bubaque,11.2833,-15.8333,78.57,83,100,16.28,GW,2022-07-20 01:40:08
128,Pacifica,37.6138,-122.4869,76.71,87,20,23.02,US,2022-07-20 01:40:08
129,Rio Gallegos,-51.6226,-69.2181,35.65,64,0,27.63,AR,2022-07-20 01:40:08
130,Kochubey,44.3861,46.5825,73.17,55,99,8.68,RU,2022-07-20 01:40:09
131,Ponta Do Sol,32.6667,-17.1,70.43,79,15,7.36,PT,2022-07-20 01:40:09
132,Flinders,-34.5833,150.8552,56.17,87,77,7.0,AU,2022-07-20 01:35:55
133,Puerto Ayora,-0.7393,-90.3518,68.56,96,55,5.01,EC,2022-07-20 01:40:10
134,Lazaro Cardenas,17.9583,-102.2,80.96,86,38,7.7,MX,2022-07-20 01:40:10
135,Albany,42.6001,-73.9662,76.42,77,56,5.08,US,2022-07-20 01:40:10
136,Poum,-20.2333,164.0167,76.21,84,100,7.47,NC,2022-07-20 01:40:11
137,Orlik,52.5178,99.825,54.81,63,79,1.14,RU,2022-07-20 01:40:11
138,Grenville,12.1167,-61.6167,80.65,83,15,14.05,GD,2022-07-20 01:40:12
139,Chokurdakh,70.6333,147.9167,48.9,58,100,7.36,RU,2022-07-20 01:40:12
140,Conakry,9.538,-13.6773,77.0,85,100,12.21,GN,2022-07-20 01:40:12
141,Praxedis Guerrero,31.3667,-106.0167,99.14,15,1,6.11,MX,2022-07-20 01:40:13
142,Geraldton,-28.7667,114.6,59.41,77,89,12.66,AU,2022-07-20 01:36:59
143,Ahipara,-35.1667,173.1667,59.2,79,34,9.44,NZ,2022-07-20 01:40:13
144,Yazman,29.1212,71.7446,91.87,60,10,17.29,PK,2022-07-20 01:40:13
145,Kahului,20.8947,-156.47,87.82,45,40,18.41,US,2022-07-20 01:38:17
146,Victoria,22.2855,114.1577,91.45,81,100,10.92,HK,2022-07-20 01:38:41
147,Kushima,31.4583,131.2333,87.96,70,90,11.3,JP,2022-07-20 01:40:14
148,Tautira,-17.7333,-149.15,76.93,69,4,4.14,PF,2022-07-20 01:40:15
149,Fairbanks,64.8378,-147.7164,55.36,88,100,6.91,US,2022-07-20 01:35:23
150,Celinac,44.7228,17.3278,56.07,48,0,4.07,BA,2022-07-20 01:40:15
151,Khatanga,71.9667,102.5,48.36,50,100,19.33,RU,2022-07-20 01:40:15
152,Arraial Do Cabo,-22.9661,-42.0278,69.53,90,0,12.46,BR,2022-07-20 01:40:16
153,Anadyr,64.75,177.4833,49.19,74,100,15.88,RU,2022-07-20 01:40:16
154,Lengshuijiang,27.6881,111.4294,85.78,79,100,4.92,CN,2022-07-20 01:40:16
155,Castro,-24.7911,-50.0119,57.87,95,1,2.8,BR,2022-07-20 01:40:17
156,Bahia Blanca,-38.7196,-62.2724,54.39,42,2,18.99,AR,2022-07-20 01:40:17
157,Saint Anthony,45.0205,-93.218,82.92,42,0,5.99,US,2022-07-20 01:40:17
158,Aguimes,27.9054,-15.4461,74.03,47,0,24.16,ES,2022-07-20 01:40:18
159,Cherskiy,68.75,161.3,47.14,59,69,12.5,RU,2022-07-20 01:40:18
160,Floro,61.5996,5.0328,66.16,68,75,28.77,NO,2022-07-20 01:40:18
161,Kadhan,24.481,68.9859,83.46,80,100,15.99,PK,2022-07-20 01:40:19
162,Niksic,42.7731,18.9445,53.46,59,0,6.04,ME,2022-07-20 01:40:19
163,Lasa,46.6166,10.7002,72.48,91,57,1.77,IT,2022-07-20 01:40:19
164,New Norfolk,-42.7826,147.0587,47.91,55,4,1.14,AU,2022-07-20 01:37:39
165,Akhmim,26.5622,31.745,80.8,24,0,5.46,EG,2022-07-20 01:40:20
166,Saldanha,-33.0117,17.9442,54.14,74,0,14.29,ZA,2022-07-20 01:40:20
167,Georgetown,5.4112,100.3354,82.13,78,83,1.21,MY,2022-07-20 01:40:20
168,Ancud,-41.8697,-73.8203,51.22,95,100,19.1,CL,2022-07-20 01:40:21
169,Lingao,19.9103,109.6859,85.82,73,100,15.14,CN,2022-07-20 01:40:21
170,Hanko,59.8333,22.95,51.15,68,1,16.51,FI,2022-07-20 01:40:21
171,Oyem,1.5995,11.5793,66.72,98,99,2.82,GA,2022-07-20 01:40:22
172,Piacabucu,-10.4056,-36.4344,72.37,84,0,7.25,BR,2022-07-20 01:40:22
173,Maceio,-9.6658,-35.7353,74.64,83,0,3.44,BR,2022-07-20 01:40:22
174,Marfino,55.7028,37.3822,53.74,81,0,2.24,RU,2022-07-20 01:40:23
175,Mombasa,-4.0547,39.6636,73.99,80,92,16.24,KE,2022-07-20 01:40:23
176,Ozernovskiy,51.5,156.5167,57.74,85,95,2.46,RU,2022-07-20 01:40:23
177,Dalvik,65.9702,-18.5286,51.73,97,100,6.69,IS,2022-07-20 01:40:24
178,Northam,51.0333,-4.2167,64.38,91,77,8.23,GB,2022-07-20 01:38:50
179,Lukovetskiy,64.2956,41.9211,61.65,87,96,11.1,RU,2022-07-20 01:40:24
180,Shenjiamen,29.9576,122.298,80.22,88,100,14.63,CN,2022-07-20 01:40:25
181,Camacha,33.0833,-16.3333,67.42,78,40,9.22,PT,2022-07-20 01:40:25
182,Port Blair,11.6667,92.75,79.3,87,100,12.17,IN,2022-07-20 01:40:25
183,Dagda,56.0951,27.5372,53.8,97,80,8.66,LV,2022-07-20 01:40:26
184,Blackwater,-23.5833,148.8833,68.27,49,19,14.27,AU,2022-07-20 01:40:26
185,Ilulissat,69.2167,-51.1,42.44,86,97,4.74,GL,2022-07-20 01:40:26
186,Zhezkazgan,47.8043,67.7144,67.98,32,20,6.71,KZ,2022-07-20 01:40:27
187,Namibe,-15.1961,12.1522,61.3,87,0,6.82,AO,2022-07-20 01:40:27
188,Baruun-Urt,46.6806,113.2792,79.93,31,56,8.03,MN,2022-07-20 01:40:27
189,Bethel,41.3712,-73.414,83.48,73,84,3.6,US,2022-07-20 01:36:57
190,Tateyama,34.9833,139.8667,87.73,78,73,2.26,JP,2022-07-20 01:40:28
191,San Patricio,28.017,-97.5169,88.54,73,0,18.63,US,2022-07-20 01:40:28
192,Paamiut,61.994,-49.6678,44.55,97,100,3.71,GL,2022-07-20 01:40:29
193,Faanui,-16.4833,-151.75,77.76,67,21,6.69,PF,2022-07-20 01:40:29
194,Koidu,8.4167,-10.8333,69.31,98,100,1.72,SL,2022-07-20 01:40:29
195,Nizwa,22.9333,57.5333,81.64,80,50,3.31,OM,2022-07-20 01:40:30
196,Manokwari,-0.8667,134.0833,75.2,91,100,3.76,ID,2022-07-20 01:40:30
197,Kamaishi,39.2667,141.8833,75.69,89,82,7.34,JP,2022-07-20 01:40:30
198,Westport,41.1415,-73.3579,86.09,71,0,5.75,US,2022-07-20 01:40:30
199,Dwarka,22.2394,68.9678,82.2,82,100,16.51,IN,2022-07-20 01:40:31
200,Nikolskoye,59.7035,30.7861,57.09,94,55,8.55,RU,2022-07-20 01:40:31
201,Nome,64.5011,-165.4064,46.47,66,75,12.66,US,2022-07-20 01:40:31
202,Pasighat,28.0667,95.3333,78.44,97,100,1.48,IN,2022-07-20 01:40:32
203,Mazagao,-0.115,-51.2894,78.85,90,100,3.74,BR,2022-07-20 01:40:32
204,Hegra,63.4644,11.114,57.11,94,75,8.05,NO,2022-07-20 01:40:32
205,Camocim,-2.9022,-40.8411,76.05,87,74,7.9,BR,2022-07-20 01:37:15
206,Yulara,-25.2406,130.9889,64.26,30,0,13.94,AU,2022-07-20 01:40:33
207,Haines Junction,60.7522,-137.5108,58.95,55,100,11.5,CA,2022-07-20 01:40:33
208,Sao Joao Da Barra,-21.6403,-41.0511,70.14,92,77,9.42,BR,2022-07-20 01:40:33
209,Airai,-8.9266,125.4092,69.39,45,72,2.37,TL,2022-07-20 01:40:34
210,Bay Roberts,47.5999,-53.2648,64.06,98,100,8.01,CA,2022-07-20 01:40:34
211,Sur,22.5667,59.5289,83.39,81,47,8.55,OM,2022-07-20 01:40:34
212,Kaeo,-35.1,173.7833,61.93,71,25,10.96,NZ,2022-07-20 01:40:35
213,Lompoc,34.6391,-120.4579,89.74,77,0,17.27,US,2022-07-20 01:38:53
214,Praya,14.9215,-23.5087,77.54,83,20,3.44,CV,2022-07-20 01:40:35
215,Sindor,62.8629,51.8905,61.05,98,100,7.81,RU,2022-07-20 01:40:35
216,Buala,-8.145,159.5921,85.28,65,13,6.8,SB,2022-07-20 01:40:36
217,Kurilsk,45.2333,147.8833,57.78,85,100,7.58,RU,2022-07-20 01:40:36
218,Seoul,37.5683,126.9778,83.1,59,100,3.91,KR,2022-07-20 01:38:27
219,Makakilo City,21.3469,-158.0858,84.52,56,20,12.66,US,2022-07-20 01:40:37
220,Dubbo,-32.25,148.6167,60.93,55,100,19.57,AU,2022-07-20 01:40:37
221,Taltal,-25.4,-70.4833,58.57,75,16,1.74,CL,2022-07-20 01:40:21
222,Kautokeino,69.0125,23.0412,50.81,92,100,12.08,NO,2022-07-20 01:40:37
223,Junagadh,21.5167,70.4667,78.35,90,100,6.98,IN,2022-07-20 01:40:38
224,Goderich,43.7501,-81.7165,72.91,90,93,4.36,CA,2022-07-20 01:39:52
225,Mount Gambier,-37.8333,140.7667,51.4,54,0,2.89,AU,2022-07-20 01:40:33
226,Esperance,-33.8667,121.9,58.64,73,100,14.56,AU,2022-07-20 01:40:38
227,Husavik,66.0449,-17.3389,46.27,95,100,7.47,IS,2022-07-20 01:40:39
228,Totness,5.8833,-56.3167,78.13,86,100,10.11,SR,2022-07-20 01:35:39
229,Tura,25.5198,90.2201,75.33,98,100,6.73,IN,2022-07-20 01:39:21
230,Bocanda,7.0626,-4.4995,69.08,89,96,4.5,CI,2022-07-20 01:40:39
231,Puerto Escondido,15.85,-97.0667,81.55,85,41,5.23,MX,2022-07-20 01:40:39
232,Cabedelo,-6.9811,-34.8339,74.07,83,11,15.26,BR,2022-07-20 01:40:40
233,Guajara,-2.9667,-57.6667,81.18,65,98,2.35,BR,2022-07-20 01:40:40
234,Pevek,69.7008,170.3133,32.45,97,100,13.73,RU,2022-07-20 01:40:03
235,Arman,59.7,150.1667,75.02,72,40,5.57,RU,2022-07-20 01:40:40
236,Beringovskiy,63.05,179.3167,54.27,67,64,25.03,RU,2022-07-20 01:40:41
237,Neiafu,-18.65,-173.9833,81.28,69,40,12.66,TO,2022-07-20 01:40:41
238,Kalmunai,7.4167,81.8167,80.29,78,100,4.27,LK,2022-07-20 01:40:41
239,Aktas,49.7789,72.9608,70.7,33,15,8.61,KZ,2022-07-20 01:40:42
240,Jimenez,28.3333,-105.4,95.81,14,77,9.73,MX,2022-07-20 01:40:42
241,Nyakabindi,-2.6333,33.9833,61.3,69,18,8.48,TZ,2022-07-20 01:40:42
242,Kruisfontein,-34.0033,24.7314,50.88,91,100,8.1,ZA,2022-07-20 01:40:43
243,Safranbolu,41.2508,32.6942,54.75,91,0,1.86,TR,2022-07-20 01:40:43
244,Gimli,50.6336,-96.9907,73.42,68,100,13.8,CA,2022-07-20 01:40:43
245,Zhigansk,66.7697,123.3711,49.69,61,74,19.44,RU,2022-07-20 01:40:44
246,Agadez,19.75,10.25,88.5,17,84,7.9,NE,2022-07-20 01:40:44
247,Lamu,-2.2717,40.902,73.62,72,95,17.05,KE,2022-07-20 01:40:44
248,Port Hedland,-20.3167,118.5667,74.32,39,0,19.04,AU,2022-07-20 01:40:45
249,Nanortalik,60.1432,-45.2371,46.67,96,100,9.8,GL,2022-07-20 01:36:57
250,Kavieng,-2.5744,150.7967,82.78,73,99,7.74,PG,2022-07-20 01:40:45
251,Patur,20.45,76.9333,74.44,89,97,7.9,IN,2022-07-20 01:40:45
252,Samarai,-10.6167,150.6667,82.22,73,48,6.67,PG,2022-07-20 01:40:40
253,Smithers,54.7804,-127.1743,66.52,45,20,6.91,CA,2022-07-20 01:40:46
254,Kongsberg,59.6652,9.6465,59.43,79,100,3.67,NO,2022-07-20 01:40:46
255,Yerbogachen,61.2767,108.0108,71.47,55,71,5.17,RU,2022-07-20 01:40:47
256,Gambela,8.25,34.5833,68.32,98,100,2.73,ET,2022-07-20 01:40:47
257,Rio Grande,-32.035,-52.0986,45.95,87,0,6.49,BR,2022-07-20 01:40:47
258,Taoudenni,22.6783,-3.9836,89.15,44,5,6.55,ML,2022-07-20 01:40:48
259,Yazd,31.8972,54.3675,80.71,12,0,4.61,IR,2022-07-20 01:40:48
260,Isangel,-19.55,169.2667,81.28,72,2,10.78,VU,2022-07-20 01:40:48
261,Shambu,9.5667,37.1,49.6,94,100,1.59,ET,2022-07-20 01:40:49
262,Daru,-9.0763,143.2092,78.35,89,100,12.01,PG,2022-07-20 01:40:49
263,Olinda,-8.0089,-34.8553,74.93,78,75,8.05,BR,2022-07-20 01:40:49
264,Sena Madureira,-9.0656,-68.6569,77.61,61,99,2.75,BR,2022-07-20 01:40:50
265,Fort Nelson,58.8053,-122.7002,68.92,39,80,9.82,CA,2022-07-20 01:40:50
266,Buraydah,26.326,43.975,82.85,14,1,6.44,SA,2022-07-20 01:39:23
267,Walla Walla,46.0646,-118.343,93.87,24,0,9.22,US,2022-07-20 01:40:50
268,Magnitogorsk,53.4186,59.0472,62.78,72,100,8.95,RU,2022-07-20 01:40:51
269,Nouakchott,18.0858,-15.9785,78.73,88,60,16.96,MR,2022-07-20 01:40:51
270,Bandarbeyla,9.4942,50.8122,77.34,65,50,30.53,SO,2022-07-20 01:40:51
271,Roebourne,-20.7833,117.1333,74.59,29,0,15.9,AU,2022-07-20 01:40:52
272,San Policarpo,12.1791,125.5072,84.81,77,7,7.25,PH,2022-07-20 01:40:52
273,Surab,28.4914,66.2585,75.16,61,98,1.77,PK,2022-07-20 01:40:52
274,Lavrentiya,65.5833,-171.0,43.2,66,98,9.66,RU,2022-07-20 01:40:53
275,Xingyi,24.1877,102.817,69.4,87,99,3.06,CN,2022-07-20 01:40:53
276,Bijar,35.8668,47.6051,67.17,37,0,5.3,IR,2022-07-20 01:40:53
277,Santa Vitoria Do Palmar,-33.5189,-53.3681,45.5,89,0,5.64,BR,2022-07-20 01:40:54
278,Sarakhs,36.5449,61.1577,82.58,22,0,8.84,IR,2022-07-20 01:40:54
279,Thompson,55.7435,-97.8558,78.28,37,93,5.01,CA,2022-07-20 01:39:58
280,Saraland,30.8207,-88.0706,86.05,79,78,6.93,US,2022-07-20 01:40:54
281,Saint George,37.1041,-113.5841,106.39,16,0,11.5,US,2022-07-20 01:40:09
282,Tigil,57.8,158.6667,71.76,53,98,16.17,RU,2022-07-20 01:40:55
283,Gijon,43.5357,-5.6615,66.45,90,82,3.0,ES,2022-07-20 01:40:55
284,Awbari,26.5921,12.7805,78.04,29,4,9.55,LY,2022-07-20 01:40:56
285,Dunedin,-45.8742,170.5036,44.56,86,100,6.71,NZ,2022-07-20 01:37:22
286,Oranjemund,-28.55,16.4333,52.38,87,0,14.34,NA,2022-07-20 01:40:56
287,Pacific Grove,36.6177,-121.9166,74.01,85,40,8.05,US,2022-07-20 01:40:56
288,Xai-Xai,-25.0519,33.6442,65.3,89,20,8.1,MZ,2022-07-20 01:40:57
289,Ilinskiy,55.619,38.1182,53.53,82,90,7.52,RU,2022-07-20 01:40:57
290,Simi,9.5667,-12.35,71.65,98,100,2.95,SL,2022-07-20 01:40:57
291,Jamame,0.0722,42.7506,74.12,70,100,11.74,SO,2022-07-20 01:40:58
292,Lashio,22.9333,97.75,72.66,97,100,1.07,MM,2022-07-20 01:40:58
293,Natal,-5.795,-35.2094,75.42,88,0,10.36,BR,2022-07-20 01:40:37
294,Sorland,67.667,12.6934,53.46,84,100,11.99,NO,2022-07-20 01:40:58
295,Zhangjiakou,40.81,114.8794,79.72,38,100,3.4,CN,2022-07-20 01:40:59
296,Canutama,-6.5339,-64.3831,76.46,58,7,2.35,BR,2022-07-20 01:40:59
297,Sydney,-33.8679,151.2073,55.71,91,85,9.95,AU,2022-07-20 01:40:24
298,Enshi,30.3,109.4833,79.02,90,99,1.72,CN,2022-07-20 01:41:00
299,Hami,42.8,93.45,79.03,24,100,23.71,CN,2022-07-20 01:41:00
300,Ribeira Grande,38.5167,-28.7,72.07,88,0,5.37,PT,2022-07-20 01:41:00
301,Thinadhoo,0.5333,72.9333,80.22,74,100,3.22,MV,2022-07-20 01:41:01
302,Kwekwe,-18.9281,29.8149,53.49,76,53,4.14,ZW,2022-07-20 01:41:01
303,Severo-Kurilsk,50.6789,156.125,51.42,98,100,18.03,RU,2022-07-20 01:41:01
304,Peace River,56.2501,-117.286,66.51,55,100,16.11,CA,2022-07-20 01:36:50
305,Berga,60.392,5.328,70.21,52,100,12.66,NO,2022-07-20 01:41:02
306,Vestmanna,62.1564,-7.1664,49.12,100,100,8.05,FO,2022-07-20 01:41:02
307,Tuensang,26.2833,94.8333,73.6,98,100,1.19,IN,2022-07-20 01:41:03
308,Zholymbet,51.7433,71.7122,69.26,40,98,12.93,KZ,2022-07-20 01:41:03
309,Honningsvag,70.9821,25.9704,51.55,93,100,9.22,NO,2022-07-20 01:41:03
310,Mayumba,-3.432,10.6554,69.08,93,68,3.56,GA,2022-07-20 01:39:39
311,Beaverlodge,55.2166,-119.4361,67.44,50,9,9.78,CA,2022-07-20 01:41:04
312,Grindavik,63.8424,-22.4338,53.55,93,0,8.05,IS,2022-07-20 01:41:04
313,Kitui,-1.367,38.0106,59.47,89,99,7.99,KE,2022-07-20 01:41:04
314,Svetlaya,46.5389,138.3297,65.37,83,77,6.35,RU,2022-07-20 01:41:05
315,Kano,12.0001,8.5167,76.12,71,43,7.0,NG,2022-07-20 01:41:05
316,Cabo San Lucas,22.8909,-109.9124,90.61,67,40,8.05,MX,2022-07-20 01:38:57
317,Omboue,-1.5746,9.2618,72.05,86,100,6.29,GA,2022-07-20 01:41:06
318,Soyo,-6.1349,12.3689,69.89,92,41,5.37,AO,2022-07-20 01:41:06
319,Antalaha,-14.9003,50.2788,67.05,86,23,10.07,MG,2022-07-20 01:41:06
320,Dembi Dolo,8.5333,34.8,56.64,91,100,2.8,ET,2022-07-20 01:41:07
321,Mutoko,-17.397,32.2268,52.38,91,61,3.98,ZW,2022-07-20 01:41:07
322,Stornoway,58.2093,-6.3865,55.92,89,100,6.91,GB,2022-07-20 01:41:07
323,Siderno,38.2779,16.302,76.33,60,0,4.76,IT,2022-07-20 01:41:08
324,Bathsheba,13.2167,-59.5167,81.21,94,40,12.66,BB,2022-07-20 01:39:42
325,Riyadh,24.6877,46.7219,91.54,15,7,10.38,SA,2022-07-20 01:41:08
326,Perth,-31.9333,115.8333,61.09,76,100,14.79,AU,2022-07-20 01:37:58
327,Jumla,29.2747,82.1838,64.44,96,100,2.24,NP,2022-07-20 01:41:09
328,Acari,-15.4311,-74.6158,65.32,75,45,2.19,PE,2022-07-20 01:41:09
329,Santa Maria,-29.6842,-53.8069,49.3,100,40,5.75,BR,2022-07-20 01:37:42
330,Karratha,-20.7377,116.8463,75.15,29,0,16.35,AU,2022-07-20 01:41:09
331,College,64.8569,-147.8028,55.35,88,100,6.91,US,2022-07-20 01:41:09
332,Coihaique,-45.5752,-72.0662,38.19,99,100,9.98,CL,2022-07-20 01:41:10
333,Codrington,-38.2667,141.9667,51.15,56,0,3.09,AU,2022-07-20 01:38:56
334,Bakchar,57.0186,82.0711,56.03,94,99,5.61,RU,2022-07-20 01:41:10
335,Zemio,5.0314,25.1361,66.69,99,98,1.81,CF,2022-07-20 01:41:11
336,Pangody,65.85,74.4859,63.09,51,14,13.18,RU,2022-07-20 01:41:11
337,Irricana,51.3237,-113.6048,84.18,75,16,19.15,CA,2022-07-20 01:41:11
338,Qaqortoq,60.7167,-46.0333,49.06,91,100,2.28,GL,2022-07-20 01:41:12
339,Opuwo,-18.0607,13.84,53.87,50,0,3.6,NA,2022-07-20 01:41:12
340,Ossora,59.2353,163.0719,65.37,79,90,10.09,RU,2022-07-20 01:41:12
341,Clyde River,70.4692,-68.5914,34.03,100,100,6.91,CA,2022-07-20 01:41:13
342,Tiarei,-17.5333,-149.3333,82.42,67,1,4.5,PF,2022-07-20 01:41:13
343,Caluquembe,-13.7833,14.6833,52.34,77,0,1.74,AO,2022-07-20 01:38:28
344,Acapulco,16.8634,-99.8901,81.48,84,24,4.68,MX,2022-07-20 01:41:13
345,Sorong,-0.8833,131.25,82.31,74,99,10.85,ID,2022-07-20 01:37:33
346,Turukhansk,65.8167,87.9833,50.13,88,100,7.99,RU,2022-07-20 01:41:14
347,Chapais,49.7834,-74.8492,62.38,78,2,6.38,CA,2022-07-20 01:41:14
348,Lagoa,39.05,-27.9833,70.93,90,0,8.61,PT,2022-07-20 01:41:15
349,Bharatpur,27.2167,77.4833,94.96,49,11,5.19,IN,2022-07-20 01:41:15
350,Jiuquan,39.7432,98.5174,78.66,21,86,8.12,CN,2022-07-20 01:41:15
351,Calvia,39.5657,2.5062,79.09,67,0,4.12,ES,2022-07-20 01:39:49
352,Mandurah,-32.55,115.7,60.91,63,93,17.29,AU,2022-07-20 01:41:16
353,Goure,13.9835,10.2704,80.02,58,0,11.68,NE,2022-07-20 01:41:16
354,Sobolevo,54.4299,31.8996,54.54,96,53,9.8,RU,2022-07-20 01:41:16
355,Iquitos,-3.7481,-73.2472,71.47,98,71,1.77,PE,2022-07-20 01:41:17
356,Havoysund,70.9963,24.6622,50.95,91,100,1.28,NO,2022-07-20 01:41:17
357,Aleksandrov Gay,50.147,48.5704,63.55,55,0,7.78,RU,2022-07-20 01:41:17
358,Burns Lake,54.2331,-125.7533,67.73,40,8,7.0,CA,2022-07-20 01:41:18
359,Honiara,-9.4333,159.95,87.69,60,4,7.7,SB,2022-07-20 01:41:18
360,Praia,14.9215,-23.5087,77.54,83,20,3.44,CV,2022-07-20 01:38:06
361,Los Llanos De Aridane,28.6585,-17.9182,67.75,78,0,13.8,ES,2022-07-20 01:38:19
362,Vaitape,-16.5167,-151.75,77.76,67,22,6.71,PF,2022-07-20 01:41:19
363,Necochea,-38.5473,-58.7368,48.81,43,0,17.05,AR,2022-07-20 01:41:19
364,Magadan,59.5667,150.8,74.53,80,62,8.05,RU,2022-07-20 01:41:19
365,Hualmay,-11.0964,-77.6139,62.19,82,63,9.66,PE,2022-07-20 01:41:20
366,Hovd,48.0056,91.6419,60.69,45,99,5.03,MN,2022-07-20 01:41:20
367,Balabac,7.9868,117.0645,84.92,71,9,10.2,PH,2022-07-20 01:41:20
368,Wenling,28.3669,121.36,85.05,77,82,14.41,CN,2022-07-20 01:41:21
369,Getulio Vargas,-32.6796,-53.5494,45.27,93,0,5.86,UY,2022-07-20 01:41:21
370,Pisco,-13.7,-76.2167,60.03,89,77,1.39,PE,2022-07-20 01:41:21
371,Sitka,57.0531,-135.33,55.29,82,100,12.66,US,2022-07-20 01:41:22
372,Barstow,34.8986,-117.0228,104.99,17,13,21.99,US,2022-07-20 01:41:22
373,Choya,52.0108,86.5467,57.9,89,100,2.17,RU,2022-07-20 01:41:22
374,Anloga,5.7947,0.8973,75.13,76,41,11.48,GH,2022-07-20 01:41:22
375,Mwene-Ditu,-7.0,23.45,70.45,44,82,3.87,CD,2022-07-20 01:41:23
376,Narsaq,60.9167,-46.05,50.22,91,100,2.66,GL,2022-07-20 01:41:23
377,Sibolga,1.7427,98.7792,80.78,81,100,0.98,ID,2022-07-20 01:41:24
378,Sweetwater,25.7634,-80.3731,85.01,77,20,10.36,US,2022-07-20 01:41:24
379,Vrangel,42.7297,133.0839,67.96,86,25,8.75,RU,2022-07-20 01:41:24
380,Gat,31.61,34.7642,82.4,74,0,2.06,IL,2022-07-20 01:41:25
381,Cortez,37.3489,-108.5859,93.96,14,0,16.11,US,2022-07-20 01:41:25
382,San Cristobal,7.7669,-72.225,65.34,98,100,4.03,VE,2022-07-20 01:41:25
383,Berbera,10.4396,45.0143,88.21,41,100,29.53,SO,2022-07-20 01:41:26
384,Bara,10.3744,10.7288,70.74,95,51,5.19,NG,2022-07-20 01:41:26
385,Dalbandin,28.8947,64.4101,85.14,54,77,8.25,PK,2022-07-20 01:41:26
386,Montepuez,-13.1256,38.9997,59.07,98,15,4.52,MZ,2022-07-20 01:41:27
387,Takoradi,4.8845,-1.7554,72.95,77,64,7.16,GH,2022-07-20 01:41:27
388,Hambantota,6.1241,81.1185,77.34,100,40,2.3,LK,2022-07-20 01:41:27
389,La Ronge,55.1001,-105.2842,74.17,39,51,9.22,CA,2022-07-20 01:38:23
390,Bowen,-20.0167,148.2333,71.08,67,74,15.97,AU,2022-07-20 01:41:28
391,Vyshestebliyevskaya,45.1961,37.0181,61.21,66,0,10.11,RU,2022-07-20 01:41:28
392,Arkhara,49.4212,130.0842,70.2,87,99,4.03,RU,2022-07-20 01:41:28
393,Mrakovo,52.7161,56.6244,59.23,89,41,3.33,RU,2022-07-20 01:41:29
394,Milos,36.75,24.4333,72.28,70,0,28.54,GR,2022-07-20 01:41:29
395,Hobyo,5.3505,48.5268,74.19,79,100,24.36,SO,2022-07-20 01:41:30
396,Linxia,35.6003,103.2064,67.12,52,0,0.43,CN,2022-07-20 01:41:30
397,Gallup,35.5281,-108.7426,93.96,16,40,13.8,US,2022-07-20 01:41:30
398,Olafsvik,64.8945,-23.7142,50.68,81,58,11.95,IS,2022-07-20 01:41:31
399,Sisimiut,66.9395,-53.6735,46.24,85,90,3.56,GL,2022-07-20 01:38:18
400,Cayenne,4.9333,-52.3333,76.08,1,0,0.0,GF,2022-07-20 01:39:02
401,Muroto,33.2833,134.15,80.38,78,87,6.2,JP,2022-07-20 01:41:31
402,Brits,-25.6347,27.7802,58.28,64,71,2.71,ZA,2022-07-20 01:41:32
403,Henties Bay,-22.116,14.2845,54.73,93,11,12.95,NA,2022-07-20 01:41:32
404,Faya,18.3851,42.4509,67.35,51,100,5.61,SA,2022-07-20 01:41:32
405,Vanimo,-2.6741,141.3028,81.93,77,92,1.34,PG,2022-07-20 01:38:19
406,Valparaiso,-33.0393,-71.6273,53.19,83,0,9.55,CL,2022-07-20 01:41:33
407,Iowa City,41.6611,-91.5302,85.98,65,0,8.05,US,2022-07-20 01:38:33
408,Swan River,52.1058,-101.2676,78.69,53,77,2.3,CA,2022-07-20 01:41:33
409,Canton,23.1167,113.25,89.55,57,43,9.55,CN,2022-07-20 01:38:44
410,Shitanjing,39.2342,106.3439,70.79,45,0,7.16,CN,2022-07-20 01:41:34
411,Kieta,-6.2167,155.6333,83.59,70,56,5.03,PG,2022-07-20 01:41:34
412,Pueblo,38.2545,-104.6091,87.75,29,75,14.97,US,2022-07-20 01:39:09
413,Albert,50.0009,2.651,68.79,93,97,6.29,FR,2022-07-20 01:41:34
414,Ngunguru,-35.6167,174.5,62.8,66,35,7.87,NZ,2022-07-20 01:41:35
415,Sambava,-14.2667,50.1667,68.79,83,17,14.09,MG,2022-07-20 01:41:35
416,Mitsamiouli,-11.3847,43.2844,75.43,66,0,5.84,KM,2022-07-20 01:41:35
417,Kununurra,-15.7667,128.7333,82.38,34,9,12.66,AU,2022-07-20 01:41:36
418,Tsiroanomandidy,-18.7667,46.0333,54.59,77,0,4.32,MG,2022-07-20 01:41:36
419,Najran,17.4924,44.1277,79.45,42,100,9.13,SA,2022-07-20 01:41:36
420,Benicarlo,40.4165,0.4271,80.91,72,1,5.75,ES,2022-07-20 01:41:37
421,Oussouye,12.485,-16.5469,77.18,87,100,10.09,SN,2022-07-20 01:41:37
422,La Palma,33.8464,-118.0467,96.31,52,20,9.22,US,2022-07-20 01:41:37
423,Outlook,51.5001,-107.0513,77.34,50,7,4.0,CA,2022-07-20 01:41:38
424,Saint-Ambroise,48.5501,-71.3324,68.54,60,35,12.66,CA,2022-07-20 01:41:38
425,Xichang,27.8964,102.2634,66.36,94,100,1.34,CN,2022-07-20 01:41:38
426,Aswan,24.0934,32.907,87.1,19,0,4.61,EG,2022-07-20 01:41:39
427,Aquiraz,-3.9014,-38.3911,78.89,86,17,11.92,BR,2022-07-20 01:38:25
428,Tomatlan,19.9333,-105.25,81.32,82,100,3.11,MX,2022-07-20 01:41:39
429,Guanare,9.0418,-69.7421,71.94,98,100,1.21,VE,2022-07-20 01:41:39
430,Chapleau,47.8405,-83.4034,73.49,78,100,0.0,CA,2022-07-20 01:41:40
431,Dongsheng,39.8161,109.9776,71.55,40,25,3.38,CN,2022-07-20 01:41:40
432,Hervey Bay,-25.2986,152.8535,69.03,68,75,7.0,AU,2022-07-20 01:41:40
433,Margate,51.3813,1.3862,69.69,79,98,5.99,GB,2022-07-20 01:41:41
434,Balykshi,47.0667,51.8667,71.6,40,40,13.42,KZ,2022-07-20 01:41:41
435,Mindelo,16.8901,-24.9804,76.55,78,40,16.11,CV,2022-07-20 01:41:41
436,Nancha,47.1333,129.2667,79.29,71,31,1.12,CN,2022-07-20 01:41:42
437,Padre Bernardo,-15.35,-48.5,66.34,45,4,5.14,BR,2022-07-20 01:41:42
438,Iskateley,67.6803,53.1512,63.72,66,6,15.84,RU,2022-07-20 01:41:42
439,Labuhan,-6.8844,112.2051,82.45,71,36,10.92,ID,2022-07-20 01:41:43
440,Ko Samui,9.5357,99.9357,84.11,74,20,4.61,TH,2022-07-20 01:41:43
441,Zheshart,62.0731,49.5733,56.14,97,94,4.23,RU,2022-07-20 01:41:44
442,Umm Kaddadah,13.6017,26.6876,80.42,60,38,14.58,SD,2022-07-20 01:41:44
443,Atambua,-9.1061,124.8925,78.84,52,86,0.96,ID,2022-07-20 01:41:44
444,Homer,59.6425,-151.5483,53.47,91,100,10.36,US,2022-07-20 01:37:31
445,Zabid,14.1951,43.3152,87.94,53,100,4.47,YE,2022-07-20 01:41:45
446,Mananara,-16.1667,49.7667,67.06,89,28,11.7,MG,2022-07-20 01:41:45
447,Petropavlovskoye,52.0712,84.107,66.27,56,19,6.02,RU,2022-07-20 01:41:45
448,Nemuro,43.3236,145.575,59.81,90,100,8.3,JP,2022-07-20 01:40:53
449,Kabare,-2.4683,28.8242,59.49,76,94,1.32,CD,2022-07-20 01:41:46
450,Dieppe,49.75,1.1667,66.38,92,100,6.33,FR,2022-07-20 01:41:46
451,Dawei,14.0833,98.2,80.49,85,93,2.89,MM,2022-07-20 01:41:46
452,Taman,45.2117,36.7161,72.73,64,0,9.69,RU,2022-07-20 01:41:47
453,Eureka,40.8021,-124.1637,65.12,80,55,5.01,US,2022-07-20 01:41:40
454,Elko,41.0002,-115.5012,82.42,43,50,14.0,US,2022-07-20 01:41:47
455,Norman Wells,65.282,-126.8329,75.24,31,40,13.8,CA,2022-07-20 01:41:48
456,Lovozero,68.005,35.0117,52.57,86,100,6.69,RU,2022-07-20 01:41:48
457,Manono,-7.3,27.4167,74.95,40,38,3.78,CD,2022-07-20 01:41:48
458,Padang,-0.9492,100.3543,80.35,82,100,1.28,ID,2022-07-20 01:41:49
459,Namatanai,-3.6667,152.4333,83.64,68,100,5.1,PG,2022-07-20 01:41:49
460,Ugoofaaru,5.6667,73.0,80.69,76,100,14.97,MV,2022-07-20 01:41:49
461,Balotra,25.8333,72.2333,83.82,79,100,15.93,IN,2022-07-20 01:41:50
462,Jinsha,32.0898,121.0735,91.99,67,95,6.96,CN,2022-07-20 01:41:50
463,Garowe,8.4054,48.4845,72.61,60,91,26.31,SO,2022-07-20 01:41:50
464,Karpathos,35.507,27.2132,71.56,83,0,28.77,GR,2022-07-20 01:41:50
465,Cuamba,-14.8031,36.5372,59.77,80,0,2.71,MZ,2022-07-20 01:41:51
466,Luderitz,-26.6481,15.1594,55.74,66,0,19.69,NA,2022-07-20 01:41:51
467,Akureyri,65.6835,-18.0878,51.73,87,100,6.91,IS,2022-07-20 01:41:51
468,Longyearbyen,78.2186,15.6401,48.04,87,75,5.75,SJ,2022-07-20 01:38:10
469,Bilibino,68.0546,166.4372,51.3,52,77,2.73,RU,2022-07-20 01:41:52
470,Bartlesville,36.7473,-95.9808,103.1,24,9,3.0,US,2022-07-20 01:41:52
471,Rosetta,31.4044,30.4164,78.55,78,0,9.84,EG,2022-07-20 01:41:52
472,Phetchabun,16.25,101.0833,79.07,81,100,2.08,TH,2022-07-20 01:41:53
473,Srikakulam,18.3,83.9,84.2,76,98,7.76,IN,2022-07-20 01:41:53
474,Bairiki,1.3292,172.9752,82.4,83,75,12.66,KI,2022-07-20 01:41:53
475,Chato,-2.6378,31.7669,65.1,55,21,4.32,TZ,2022-07-20 01:41:54
476,Atasu,48.6814,71.6433,74.28,27,0,6.26,KZ,2022-07-20 01:41:54
477,Pangnirtung,66.1451,-65.7125,47.77,85,100,3.09,CA,2022-07-20 01:41:54
478,Hasaki,35.7333,140.8333,90.28,80,83,4.32,JP,2022-07-20 01:37:36
479,Trairi,-3.2778,-39.2689,78.51,81,20,10.54,BR,2022-07-20 01:40:14
480,Phan Thiet,10.9333,108.1,81.28,77,100,5.26,VN,2022-07-20 01:41:55
481,Guaruja,-23.9931,-46.2564,68.02,95,100,6.11,BR,2022-07-20 01:37:41
482,San Felipe,10.3399,-68.7425,71.29,98,64,0.83,VE,2022-07-20 01:41:55
483,Khorinsk,52.1657,109.7726,67.26,71,88,9.44,RU,2022-07-20 01:41:56
484,Bam,29.106,58.357,87.35,13,100,12.95,IR,2022-07-20 01:41:56
485,Riachao,-7.3619,-46.6172,75.16,42,5,4.0,BR,2022-07-20 01:41:57
486,Ponta Delgada,37.7333,-25.6667,74.5,94,75,6.91,PT,2022-07-20 01:41:57
487,Ostrovnoy,68.0531,39.5131,49.86,95,100,11.52,RU,2022-07-20 01:41:57
488,Yenagoa,4.9247,6.2642,72.19,87,85,3.65,NG,2022-07-20 01:41:58
489,Ambon,-3.6954,128.1814,80.73,78,78,9.04,ID,2022-07-20 01:41:58
490,Provideniya,64.3833,-173.3,53.71,62,0,8.99,RU,2022-07-20 01:41:58
491,Vieste,41.8825,16.175,76.51,47,0,6.04,IT,2022-07-20 01:41:59
492,Kokopo,-4.352,152.2633,82.24,67,100,2.01,PG,2022-07-20 01:41:59
493,Dali,25.7,100.1833,64.26,97,100,1.86,CN,2022-07-20 01:41:59
494,Murakami,38.2333,139.4833,80.49,90,100,8.05,JP,2022-07-20 01:42:00
495,Buriti Bravo,-5.8372,-43.8336,75.25,46,18,4.61,BR,2022-07-20 01:42:00
496,Dayong,25.0209,118.2898,89.78,63,99,4.09,CN,2022-07-20 01:42:00
497,Marzuq,14.4,46.4667,76.96,56,100,7.2,YE,2022-07-20 01:42:01
498,Batticaloa,7.7102,81.6924,80.04,77,100,5.32,LK,2022-07-20 01:42:01
499,Abnub,27.2696,31.1511,82.62,31,0,5.73,EG,2022-07-20 01:42:01
500,Shwebo,22.5667,95.7,86.14,63,100,10.04,MM,2022-07-20 01:42:02
501,Hofn,64.2539,-15.2082,50.04,79,100,8.34,IS,2022-07-20 01:42:02
502,La Seyne-Sur-Mer,43.0982,5.8847,79.88,70,0,1.07,FR,2022-07-20 01:42:02
503,Ler,8.3018,30.1418,71.33,90,100,3.58,SS,2022-07-20 01:42:03
504,Asfi,32.2994,-9.2372,70.77,79,5,17.27,MA,2022-07-20 01:42:03
505,Salalah,17.0151,54.0924,75.29,100,100,5.75,OM,2022-07-20 01:41:45
506,Luau,-10.7073,22.2247,59.07,43,5,5.46,AO,2022-07-20 01:42:03
507,Saurimo,-9.6608,20.3916,58.33,42,12,5.14,AO,2022-07-20 01:42:04
508,Hirara,24.8,125.2833,89.46,74,40,18.41,JP,2022-07-20 01:42:04
509,Wanning,18.8003,110.3967,84.16,80,63,7.58,CN,2022-07-20 01:42:04
510,Ayan,56.45,138.1667,56.61,98,100,10.76,RU,2022-07-20 01:41:55
511,Shimoda,34.6667,138.95,84.29,74,76,5.77,JP,2022-07-20 01:40:51
512,Maryville,35.7565,-83.9705,82.35,81,40,12.66,US,2022-07-20 01:42:05
513,Ambulu,-8.345,113.6058,79.79,66,5,2.71,ID,2022-07-20 01:42:05
514,Te Anau,-45.4167,167.7167,40.8,97,100,2.57,NZ,2022-07-20 01:42:06
515,Svetlogorsk,52.6333,29.7333,55.58,97,17,6.76,BY,2022-07-20 01:42:06
516,Avera,33.194,-82.5271,78.31,91,96,8.25,US,2022-07-20 01:39:20
517,Syasstroy,60.1367,32.5691,56.19,92,34,17.05,RU,2022-07-20 01:42:06
518,Sarishabari,24.7333,89.8333,78.93,94,100,10.74,BD,2022-07-20 01:42:07
519,Ambunti,-4.2365,142.8448,86.49,65,79,2.01,PG,2022-07-20 01:42:07
520,Ulladulla,-35.35,150.4667,54.45,71,49,9.93,AU,2022-07-20 01:42:07
521,Comodoro Rivadavia,-45.8667,-67.5,49.86,57,0,18.41,AR,2022-07-20 01:42:00
522,Berlevag,70.8578,29.0864,54.91,84,100,4.9,NO,2022-07-20 01:42:08
523,Mandalay,21.9747,96.0836,85.95,65,100,10.92,MM,2022-07-20 01:42:08
524,Bullhead City,35.1478,-114.5683,114.01,16,77,5.99,US,2022-07-20 01:41:04
525,Valkeakoski,61.2642,24.0312,49.08,81,51,10.16,FI,2022-07-20 01:42:09
526,Praia Da Vitoria,38.7333,-27.0667,70.75,94,75,8.81,PT,2022-07-20 01:42:09
527,Yeniseysk,58.4497,92.1703,59.04,92,99,5.7,RU,2022-07-20 01:42:10
528,Kawalu,-7.3817,108.2082,79.25,72,8,2.95,ID,2022-07-20 01:42:10
529,Bukama,-9.2,25.85,68.86,48,9,3.87,CD,2022-07-20 01:42:10
530,Charters Towers,-20.1,146.2667,71.19,51,0,8.97,AU,2022-07-20 01:42:11
531,Kloulklubed,7.0419,134.2556,79.3,74,100,3.76,PW,2022-07-20 01:42:11
532,Edson,53.5835,-116.4356,69.91,37,0,17.27,CA,2022-07-20 01:42:11
533,Havre-Saint-Pierre,50.2334,-63.5986,64.76,94,100,6.91,CA,2022-07-20 01:42:12
534,Meulaboh,4.1363,96.1285,80.13,71,45,3.02,ID,2022-07-20 01:42:12
535,Kutum,14.2,24.6667,74.1,68,95,11.56,SD,2022-07-20 01:42:12
536,Okhotsk,59.3833,143.3,63.48,76,61,7.0,RU,2022-07-20 01:42:13
537,Itai,-23.4178,-49.0906,63.01,92,68,8.93,BR,2022-07-20 01:42:13
538,Soure,-0.7167,-48.5233,78.31,83,97,9.13,BR,2022-07-20 01:42:13
539,Jacareacanga,-6.2222,-57.7528,78.94,52,83,1.72,BR,2022-07-20 01:42:14
540,Waingapu,-9.6567,120.2641,80.8,56,27,12.41,ID,2022-07-20 01:42:14
541,North Bend,43.4065,-124.2243,74.25,92,100,11.5,US,2022-07-20 01:42:14
542,Champerico,14.3,-91.9167,75.81,91,100,7.63,GT,2022-07-20 01:42:15
543,Veraval,20.9,70.3667,80.71,85,96,16.08,IN,2022-07-20 01:42:15
544,Zhanakorgan,43.9098,67.2495,84.02,24,0,12.26,KZ,2022-07-20 01:42:15
545,Latung,5.5,120.8833,82.87,73,15,5.53,PH,2022-07-20 01:42:16
546,Tucurui,-3.7661,-49.6725,80.33,65,100,3.71,BR,2022-07-20 01:42:16
547,Tanout,14.9709,8.8879,81.07,60,13,7.25,NE,2022-07-20 01:42:17
548,Novyy Urgal,51.0736,132.5642,60.21,93,100,1.92,RU,2022-07-20 01:42:17
549,Jaunpur,25.7333,82.6833,87.82,65,92,4.97,IN,2022-07-20 01:39:34
550,Aanekoski,62.6946,25.818,49.68,100,10,7.54,FI,2022-07-20 01:42:17
551,Shelburne,44.0787,-80.2041,79.25,63,66,7.34,CA,2022-07-20 01:42:18
552,Quatre Cocos,-20.2078,57.7625,69.91,70,100,22.91,MU,2022-07-20 01:42:18
553,Linkoping,58.4109,15.6216,61.99,88,89,2.3,SE,2022-07-20 01:42:18
554,Payo,-3.7508,103.6372,81.3,75,46,1.36,ID,2022-07-20 01:42:19
555,Lazarev,52.225,141.5131,56.01,93,100,7.58,RU,2022-07-20 01:42:19
556,Sayat,38.7839,63.8803,84.07,23,0,22.03,TM,2022-07-20 01:42:19
557,Bichura,50.5881,107.6022,56.77,90,100,4.74,RU,2022-07-20 01:42:20
558,Copiapo,-27.3667,-70.3333,49.69,39,3,2.55,CL,2022-07-20 01:37:21
559,Moose Factory,51.2585,-80.6094,57.2,88,0,10.36,CA,2022-07-20 01:42:20
560,Cap Malheureux,-19.9842,57.6142,65.46,77,91,10.0,MU,2022-07-20 01:42:21
561,Coquimbo,-29.9533,-71.3436,53.33,100,100,2.3,CL,2022-07-20 01:42:21
562,Guerrero Negro,27.9769,-114.0611,73.0,68,5,14.72,MX,2022-07-20 01:42:21
563,Safaga,26.7292,33.9365,87.62,36,0,8.88,EG,2022-07-20 01:40:29
564,Hermiston,45.8404,-119.2895,97.45,19,0,8.05,US,2022-07-20 01:38:06
565,Tessalit,20.1986,1.0114,88.41,38,89,7.16,ML,2022-07-20 01:41:18
566,La Oroya,-11.5189,-75.8994,39.97,75,76,4.14,PE,2022-07-20 01:42:22
567,Pontianak,-0.0333,109.3333,81.99,83,75,3.44,ID,2022-07-20 01:42:22
